{"type":"FeatureCollection","features":[{"type":"Feature","geometry":{"type":"Point","coordinates":[-3.188897,55.945707]},"properties":{"marker-size":"medium","location":"stops.else.chats","rgb-string":"#ffc000","marker-color":"#ffc000","marker-symbol":"danger"}},{"type":"Feature","geometry":{"type":"Point","coordinates":[-3.186729,55.945653]},"properties":{"marker-size":"medium","location":"hidden.handle.softly","rgb-string":"#ffc000","marker-color":"#ffc000","marker-symbol":"danger"}},{"type":"Feature","geometry":{"type":"Point","coordinates":[-3.188608,55.943119]},"properties":{"marker-size":"medium","location":"groups.ideas.script","rgb-string":"#40ff00","marker-color":"#40ff00","marker-symbol":"lighthouse"}},{"type":"Feature","geometry":{"type":"Point","coordinates":[-3.185043,55.945868]},"properties":{"marker-size":"medium","location":"rider.aura.bulb","rgb-string":"#ffc000","marker-color":"#ffc000","marker-symbol":"danger"}},{"type":"Feature","geometry":{"type":"Point","coordinates":[-3.191065,55.94444]},"properties":{"marker-size":"medium","location":"paying.crowd.weep","rgb-string":"#80ff00","marker-color":"#80ff00","marker-symbol":"lighthouse"}},{"type":"Feature","geometry":{"type":"Point","coordinates":[-3.18567,55.944359]},"properties":{"marker-size":"medium","location":"atoms.vanish.foods","rgb-string":"#000000","marker-color":"#000000","marker-symbol":"cross"}},{"type":"Feature","geometry":{"type":"Point","coordinates":[-3.187645,55.944143]},"properties":{"marker-size":"medium","location":"bound.ends.matter","rgb-string":"#40ff00","marker-color":"#40ff00","marker-symbol":"lighthouse"}},{"type":"Feature","geometry":{"type":"Point","coordinates":[-3.191161,55.942742]},"properties":{"marker-size":"medium","location":"along.spill.limp","rgb-string":"#00ff00","marker-color":"#00ff00","marker-symbol":"lighthouse"}},{"type":"Feature","geometry":{"type":"Point","coordinates":[-3.188319,55.945518]},"properties":{"marker-size":"medium","location":"skills.less.herb","rgb-string":"#ff8000","marker-color":"#ff8000","marker-symbol":"danger"}},{"type":"Feature","geometry":{"type":"Point","coordinates":[-3.18986,55.945491]},"properties":{"marker-size":"medium","location":"turkey.limit.ramp","rgb-string":"#ff8000","marker-color":"#ff8000","marker-symbol":"danger"}},{"type":"Feature","geometry":{"type":"Point","coordinates":[-3.185332,55.946138]},"properties":{"marker-size":"medium","location":"prime.rent.silk","rgb-string":"#ff4000","marker-color":"#ff4000","marker-symbol":"danger"}},{"type":"Feature","geometry":{"type":"Point","coordinates":[-3.187837,55.943227]},"properties":{"marker-size":"medium","location":"gums.clock.modes","rgb-string":"#80ff00","marker-color":"#80ff00","marker-symbol":"lighthouse"}},{"type":"Feature","geometry":{"type":"Point","coordinates":[-3.189186,55.945087]},"properties":{"marker-size":"medium","location":"number.exist.rate","rgb-string":"#80ff00","marker-color":"#80ff00","marker-symbol":"lighthouse"}},{"type":"Feature","geometry":{"type":"Point","coordinates":[-3.186296,55.945761]},"properties":{"marker-size":"medium","location":"posts.kicked.universally","rgb-string":"#ffc000","marker-color":"#ffc000","marker-symbol":"danger"}},{"type":"Feature","geometry":{"type":"Point","coordinates":[-3.184803,55.943173]},"properties":{"marker-size":"medium","location":"brings.remedy.latter","rgb-string":"#ff0000","marker-color":"#ff0000","marker-symbol":"danger"}},{"type":"Feature","geometry":{"type":"Point","coordinates":[-3.187789,55.944386]},"properties":{"marker-size":"medium","location":"thank.salsa.brain","rgb-string":"#40ff00","marker-color":"#40ff00","marker-symbol":"lighthouse"}},{"type":"Feature","geometry":{"type":"Point","coordinates":[-3.188801,55.945437]},"properties":{"marker-size":"medium","location":"shady.soft.phones","rgb-string":"#c0ff00","marker-color":"#c0ff00","marker-symbol":"lighthouse"}},{"type":"Feature","geometry":{"type":"Point","coordinates":[-3.191113,55.943901]},"properties":{"marker-size":"medium","location":"spicy.bunch.shady","rgb-string":"#40ff00","marker-color":"#40ff00","marker-symbol":"lighthouse"}},{"type":"Feature","geometry":{"type":"Point","coordinates":[-3.190583,55.942823]},"properties":{"marker-size":"medium","location":"tonic.bliss.cove","rgb-string":"#00ff00","marker-color":"#00ff00","marker-symbol":"lighthouse"}},{"type":"Feature","geometry":{"type":"Point","coordinates":[-3.184513,55.945302]},"properties":{"marker-size":"medium","location":"settle.title.united","rgb-string":"#ffc000","marker-color":"#ffc000","marker-symbol":"danger"}},{"type":"Feature","geometry":{"type":"Point","coordinates":[-3.185621,55.943065]},"properties":{"marker-size":"medium","location":"toned.deflection.bland","rgb-string":"#ffc000","marker-color":"#ffc000","marker-symbol":"danger"}},{"type":"Feature","geometry":{"type":"Point","coordinates":[-3.186344,55.942958]},"properties":{"marker-size":"medium","location":"hers.banks.goat","rgb-string":"#ff0000","marker-color":"#ff0000","marker-symbol":"danger"}},{"type":"Feature","geometry":{"type":"Point","coordinates":[-3.186777,55.944575]},"properties":{"marker-size":"medium","location":"artist.gets.react","rgb-string":"#c0ff00","marker-color":"#c0ff00","marker-symbol":"lighthouse"}},{"type":"Feature","geometry":{"type":"Point","coordinates":[-3.186537,55.944925]},"properties":{"marker-size":"medium","location":"laws.merit.bleak","rgb-string":"#ff4000","marker-color":"#ff4000","marker-symbol":"danger"}},{"type":"Feature","geometry":{"type":"Point","coordinates":[-3.186922,55.945437]},"properties":{"marker-size":"medium","location":"spent.spoon.bolt","rgb-string":"#ff0000","marker-color":"#ff0000","marker-symbol":"danger"}},{"type":"Feature","geometry":{"type":"Point","coordinates":[-3.189957,55.94603]},"properties":{"marker-size":"medium","location":"love.behind.orchestra","rgb-string":"#ff0000","marker-color":"#ff0000","marker-symbol":"danger"}},{"type":"Feature","geometry":{"type":"Point","coordinates":[-3.187404,55.945949]},"properties":{"marker-size":"medium","location":"slips.mass.baking","rgb-string":"#ffc000","marker-color":"#ffc000","marker-symbol":"danger"}},{"type":"Feature","geometry":{"type":"Point","coordinates":[-3.185814,55.94603]},"properties":{"marker-size":"medium","location":"renew.slows.basket","rgb-string":"#ffc000","marker-color":"#ffc000","marker-symbol":"danger"}},{"type":"Feature","geometry":{"type":"Point","coordinates":[-3.184658,55.943874]},"properties":{"marker-size":"medium","location":"rider.mile.lime","rgb-string":"#ff4000","marker-color":"#ff4000","marker-symbol":"danger"}},{"type":"Feature","geometry":{"type":"Point","coordinates":[-3.191594,55.945195]},"properties":{"marker-size":"medium","location":"hills.feels.tunes","rgb-string":"#ff0000","marker-color":"#ff0000","marker-symbol":"danger"}},{"type":"Feature","geometry":{"type":"Point","coordinates":[-3.185814,55.943551]},"properties":{"marker-size":"medium","location":"record.sofa.sock","rgb-string":"#c0ff00","marker-color":"#c0ff00","marker-symbol":"lighthouse"}},{"type":"Feature","geometry":{"type":"Point","coordinates":[-3.190197,55.943443]},"properties":{"marker-size":"medium","location":"arts.dish.scarcely","rgb-string":"#00ff00","marker-color":"#00ff00","marker-symbol":"lighthouse"}},{"type":"Feature","geometry":{"type":"Point","coordinates":[-3.187307,55.944494]},"properties":{"marker-size":"medium","location":"only.fairly.rift","rgb-string":"#000000","marker-color":"#000000","marker-symbol":"cross"}},{"type":"Feature","geometry":{"type":"LineString","coordinates":[[-3.188396,55.944425],[-3.188396,55.944725],[-3.1883439,55.9450204],[-3.1883439,55.9453204],[-3.1886037,55.9454704],[-3.1888335,55.9456633],[-3.1887814,55.9453678],[-3.1890412,55.9452178],[-3.1893231,55.9453204],[-3.1896051,55.945423],[-3.1899005,55.9454751],[-3.1899526,55.9457706],[-3.1899526,55.9460706],[-3.1902124,55.9459206],[-3.1904722,55.9457706],[-3.190732,55.9456206],[-3.1909918,55.9454706],[-3.1912737,55.945368],[-3.1915335,55.945218],[-3.1913835,55.9449582],[-3.1912335,55.9446984],[-3.1910835,55.9444386],[-3.1910835,55.9441386],[-3.1911356,55.9438431],[-3.1911356,55.9435431],[-3.1911356,55.9432431],[-3.1911356,55.9429431],[-3.1911877,55.9426477],[-3.1909058,55.9427503],[-3.1906104,55.9428024],[-3.1904604,55.9430622],[-3.1903104,55.943322],[-3.1900149,55.9432699],[-3.1897195,55.9432178],[-3.189424,55.9431657],[-3.189124,55.9431657],[-3.1888286,55.9431136],[-3.1885286,55.9431136],[-3.1882332,55.9431657],[-3.1879377,55.9432178],[-3.1876423,55.9431657],[-3.1873468,55.9431136],[-3.1870514,55.9430615],[-3.186756,55.9430094],[-3.1864605,55.9429573],[-3.1862307,55.9431502],[-3.1860009,55.943343],[-3.185808,55.9435728],[-3.1857054,55.9432909],[-3.1856028,55.943009],[-3.1853074,55.9430611],[-3.185012,55.9431132],[-3.18473,55.9432158],[-3.1846779,55.9435112],[-3.1846779,55.9438112],[-3.1846259,55.9441067],[-3.1845738,55.9444021],[-3.1845738,55.9447021],[-3.1845217,55.9449976],[-3.1845217,55.9452976],[-3.1847145,55.9455274],[-3.1849073,55.9457572],[-3.1851372,55.94595],[-3.185367,55.9461429],[-3.1856624,55.9460908],[-3.1856624,55.9457908],[-3.1856624,55.9454908],[-3.1856624,55.9451908],[-3.1856624,55.9448908],[-3.1856624,55.9445908],[-3.1856624,55.9442908],[-3.1859578,55.9443429],[-3.1862398,55.9444455],[-3.1864696,55.9446383],[-3.186765,55.9445862],[-3.186615,55.944846],[-3.1863552,55.944996],[-3.1863552,55.945296],[-3.1863031,55.9455915],[-3.1865986,55.9456436],[-3.1868584,55.9454936],[-3.1870882,55.9456864],[-3.187318,55.9458792],[-3.187318,55.9455792],[-3.1876134,55.9455271],[-3.1873134,55.9455271],[-3.187018,55.9455792],[-3.186868,55.9453194],[-3.1866752,55.9450896],[-3.1865252,55.9448298],[-3.1868071,55.9447272],[-3.1870669,55.9445772],[-3.1873488,55.9444746],[-3.1875416,55.9442448],[-3.1878014,55.9443948],[-3.1881014,55.9443948],[-3.1883969,55.9444469]]},"properties":{}}]}